,City ID,City,Cloudiness,Country,Date,Humidity,Lat,Lng,Max Temp,Wind Speed
1370,57000,Hobyo,99,SO,1579998870,81,5.35,48.53,25.45,7.09
1113,58933,Garoowe,74,SO,1579998212,76,8.41,48.48,22.88,4.91
908,81604,Suluq,67,LY,1579998180,61,31.67,20.25,10.89,4.63
557,86049,Jalu,12,LY,1579998214,52,29.03,21.55,11.71,3.88
177,87205,Darnah,48,LY,1579998154,59,32.77,22.64,15.54,5.66
1565,102527,Sakakah,75,SA,1579998959,65,29.97,40.21,8.0,1.5
486,107304,Buraidah,0,SA,1579998025,93,26.33,43.98,4.0,5.7
1437,108410,Riyadh,0,SA,1579998765,39,24.69,46.72,7.0,5.7
1558,110690,Faya,40,SA,1579999089,87,18.39,42.45,8.0,3.03
1615,128234,Kerman,0,IR,1579999156,63,30.28,57.08,-2.0,2.1
217,139817,Bushehr,43,IR,1579998158,70,28.97,50.84,12.9,6.22
513,150793,Pangani,100,TZ,1579998207,84,-5.43,38.97,26.02,2.29
1478,164947,Salamiyah,0,SY,1579998996,60,35.01,37.05,3.57,4.07
348,204283,Watsa,92,CD,1579998181,42,3.04,29.54,20.19,0.62
106,216281,Goma,81,CD,1579998145,76,-1.68,29.22,14.11,0.22
1030,228971,Mubende,100,UG,1579998200,57,0.56,31.39,19.69,0.4
980,239899,Bria,100,CF,1579998191,26,6.54,21.99,17.37,2.31
1631,257122,Methoni,100,GR,1579999174,93,36.82,21.7,11.11,1.5
1672,258175,Lixouri,99,GR,1579999221,69,38.2,20.43,14.51,4.44
933,261814,Koutsouras,74,GR,1579998185,80,35.03,25.95,10.0,0.89
326,286245,Sur,4,OM,1579998175,82,22.57,59.53,19.57,2.12
1200,311728,Mersin,75,TR,1579998140,80,36.86,34.65,5.0,2.1
1,334700,Hirna,100,ET,1579998130,90,9.22,41.1,15.34,4.11
1653,352733,Mersa Matruh,0,EG,1579999199,81,31.35,27.25,8.0,0.55
338,358620,Safaga,0,EG,1579998179,40,26.73,33.94,12.0,3.6
1466,361291,Hurghada,0,EG,1579998981,40,27.26,33.81,12.0,3.6
752,363656,Yambio,46,SS,1579998542,36,4.57,28.4,19.78,1.91
180,370737,Malakal,16,SS,1579998154,13,9.53,31.66,20.6,3.46
1118,408689,Lardos,43,GR,1579998213,71,36.09,28.02,11.11,1.5
1633,473263,Vizinga,100,RU,1579999176,96,61.07,50.1,-14.1,1.44
626,475469,Verkhnetulomskiy,40,RU,1579998139,84,68.61,31.8,-19.0,1.0
998,486983,Stulovo,92,RU,1579998194,96,58.72,50.14,-10.07,2.02
1330,491019,Sol'-Iletsk,100,RU,1579998824,96,51.16,54.99,-1.18,8.33
560,539817,Kudymkar,100,RU,1579998214,94,59.02,54.66,-9.57,2.1
190,541951,Krasnozatonskiy,75,RU,1579997944,92,61.68,50.98,-14.0,3.0
93,546105,Nikolskoye,40,RU,1579998143,86,59.7,30.79,-0.56,2.0
864,553766,Kamenka,79,RU,1579998172,87,51.32,42.77,1.11,3.58
258,554318,Kalevala,27,RU,1579998165,90,65.2,31.17,-13.66,2.1
686,556268,Ostrovnoy,65,RU,1579998125,99,68.05,39.51,-17.43,3.66
1044,564593,Dubovskoye,100,RU,1579998202,95,47.41,42.76,1.43,8.9
211,569122,Chermoz,100,RU,1579998158,96,58.79,56.15,-10.57,1.31
84,578842,Bashmakovo,79,RU,1579998142,88,53.21,43.03,-3.28,7.79
1413,581359,Apastovo,87,RU,1579998921,92,55.2,48.51,-4.0,3.0
290,582447,Almaznyy,75,RU,1579998169,74,48.04,40.05,3.0,6.0
514,608872,Makat,100,KZ,1579998208,97,47.65,53.35,0.81,10.85
226,610298,Beyneu,100,KZ,1579998160,76,45.32,55.2,1.81,9.07
1408,637293,Savonlinna,90,FI,1579998915,85,61.87,28.92,-4.0,2.1
335,669241,Raducaneni,0,RO,1579998179,74,46.95,27.93,-1.67,1.5
1233,686090,Asau,65,RO,1579998145,92,46.43,26.4,-4.0,1.0
372,690629,Uspenka,79,UA,1579998185,82,48.39,39.16,0.73,6.19
1583,693348,Sobolivka,90,UA,1579999118,90,49.34,28.65,0.0,4.0
401,709584,Druzhba,79,UA,1579998189,84,52.04,33.95,-0.03,5.55
734,714581,Torokszentmiklos,90,HU,1579998153,100,47.18,20.42,-1.0,2.1
1475,736324,Emporio,86,GR,1579998992,74,40.48,21.55,3.0,2.6
493,751816,Artvin,0,TR,1579998204,64,41.17,41.83,4.0,9.8
499,777019,Vardo,100,NO,1579998205,70,70.37,31.11,-4.9,12.77
376,778707,Mehamn,100,NO,1579998186,77,71.04,27.85,-7.95,9.48
434,780687,Berlevag,100,NO,1579998194,73,70.86,29.09,-5.19,12.25
1003,780717,Batsfjord,77,NO,1579998195,81,70.63,29.72,-10.6,7.53
984,788852,Kursumlija,24,RS,1579998034,94,43.15,21.27,3.0,1.5
1604,863061,Usinsk,95,RU,1579999133,100,65.99,57.53,-22.63,0.05
1105,877384,Tingi,96,TZ,1579998211,87,-11.3,35.03,19.9,1.64
880,877401,Songea,75,TZ,1579998174,94,-10.68,35.65,21.0,2.1
428,893549,Chipinge,10,ZW,1579998193,72,-20.19,32.62,18.27,1.55
1268,895057,Binga,0,ZW,1579998752,79,-17.62,27.34,24.05,1.95
1190,921772,Moroni,100,KM,1579998139,76,-11.7,43.26,26.14,1.66
981,933077,Shakawe,0,BW,1579998191,62,-18.37,21.85,21.42,1.4
674,933109,Sehithwa,38,BW,1579998145,55,-20.47,22.72,24.52,0.47
1122,933416,Manyana,26,BW,1579998214,56,-23.4,21.72,22.32,4.57
1655,933995,Souillac,40,MU,1579999202,78,-20.52,57.52,25.0,5.7
124,934322,Mahebourg,40,MU,1579997986,78,-20.41,57.7,25.0,5.7
162,934479,Grand Gaube,40,MU,1579998038,78,-20.01,57.66,25.0,5.7
748,935214,Saint-Pierre,75,RE,1579998155,78,-21.34,55.48,23.0,3.6
1132,935215,Saint-Philippe,75,RE,1579998131,78,-21.36,55.77,23.0,3.6
337,964420,Port Elizabeth,75,ZA,1579998179,94,-33.92,25.57,20.0,8.7
563,964432,Port Alfred,0,ZA,1579998130,98,-33.59,26.89,18.89,2.68
19,964712,Plettenberg Bay,45,ZA,1579998133,85,-34.05,23.37,19.83,4.0
137,986717,Kruisfontein,27,ZA,1579998148,86,-34.0,24.73,19.24,9.97
1107,988698,Knysna,81,ZA,1579997943,93,-34.04,23.05,18.0,5.7
1019,990930,Kimberley,9,ZA,1579998197,69,-28.73,24.76,23.0,6.7
96,1004109,Fochville,28,ZA,1579998143,72,-26.49,27.49,15.56,3.18
234,1006984,East London,0,ZA,1579998161,80,-33.02,27.91,24.21,6.73
17,1015776,Bredasdorp,31,ZA,1579997776,63,-34.53,20.04,18.0,5.7
125,1026014,Tete,3,MZ,1579998147,98,-16.16,33.59,20.59,1.15
1469,1028434,Quelimane,16,MZ,1579998985,93,-17.88,36.89,22.58,1.79
1015,1053384,Toamasina,75,MG,1579998197,94,-18.17,49.38,23.0,5.1
1205,1054329,Vangaindrano,77,MG,1579998141,90,-23.35,47.6,19.4,0.72
989,1056899,Sambava,100,MG,1579998573,96,-14.27,50.17,21.77,0.88
1442,1065158,Farafangana,1,MG,1579998953,58,-22.82,47.83,24.92,4.7
1648,1066831,Beroroha,93,MG,1579999193,66,-21.67,45.17,22.67,5.75
873,1106643,Quatre Cocos,40,MU,1579997890,78,-20.21,57.76,25.0,5.7
1350,1106677,Bambous Virieux,40,MU,1579998848,78,-20.34,57.76,25.0,5.7
1665,1140025,Herat,20,AF,1579998882,86,34.5,62.0,1.0,4.0
978,1153035,Kathu,20,TH,1579997926,88,7.92,98.33,22.0,3.72
1082,1161724,Chabahar,21,IR,1579998032,73,25.29,60.64,19.27,2.45
1667,1166066,Sarai Naurang,12,PK,1579999215,42,32.83,70.78,8.76,0.31
223,1168700,Ormara,0,PK,1579998159,77,25.21,64.64,22.06,6.98
366,1174872,Karachi,0,PK,1579997974,87,24.91,67.08,15.0,2.85
1372,1177662,Gujranwala,20,PK,1579998873,93,32.16,74.19,8.0,2.1
1364,1180295,Dera Bugti,0,PK,1579998863,60,29.03,69.15,12.59,0.84
1483,1213855,Sibolga,95,ID,1579998383,95,1.74,98.78,22.1,1.27
1308,1214026,Sabang,67,ID,1579998798,65,5.89,95.32,27.88,3.96
523,1214488,Meulaboh,73,ID,1579998209,82,4.14,96.13,27.33,2.92
866,1218420,Seydi,45,TM,1579998172,81,39.48,62.91,-2.53,0.6
1175,1235000,Minuwangoda,20,LK,1579998137,83,7.17,79.95,25.0,4.1
562,1237980,Kurunegala,20,LK,1579998214,83,7.49,80.36,25.0,4.1
652,1244926,Hambantota,62,LK,1579998530,73,6.12,81.12,25.62,9.38
1609,1254046,Tura,0,IN,1579999149,78,25.52,90.22,11.3,0.71
1332,1256593,Sheopur,4,IN,1579998827,36,25.67,76.7,12.47,0.47
221,1259385,Port Blair,100,IN,1579998115,71,11.67,92.75,25.5,6.39
963,1260141,Pathalgaon,0,IN,1579998189,37,22.57,83.47,11.23,1.75
364,1261853,Narasannapeta,80,IN,1579998184,93,18.42,84.05,19.29,1.39
367,1263622,Mansa,13,IN,1579998184,61,29.98,75.38,9.18,0.57
306,1263752,Mangrol,0,IN,1579998172,53,21.12,70.12,21.63,6.66
292,1264976,Leh,100,IN,1579998170,94,34.17,77.58,-19.49,2.09
249,1266631,Khuldabad,20,IN,1579998163,72,20.05,75.18,16.0,0.45
43,1267390,Kavaratti,88,IN,1579998137,67,10.57,72.64,27.11,1.34
1156,1267776,Kargil,100,IN,1579998135,98,34.57,76.1,-18.84,1.42
194,1271215,Gidam,79,IN,1579998156,68,18.98,81.4,16.28,0.89
1004,1272140,Dwarka,0,IN,1579998014,69,22.24,68.97,22.12,5.21
309,1276867,Barpeta,40,IN,1579998173,93,26.32,91.0,11.0,2.61
896,1279945,Jiuquan,0,CN,1579998179,30,39.74,98.52,-9.98,2.95
658,1282256,Hithadhoo,100,MV,1579998143,79,-0.6,73.08,28.14,6.65
158,1283240,Kathmandu,75,NP,1579998151,100,27.72,85.32,6.0,1.0
958,1283285,Jumla,24,NP,1579998188,56,29.27,82.18,-5.11,2.11
163,1283339,Hetauda,75,NP,1579998152,100,27.43,85.03,6.0,1.0
288,1296736,Shwebo,0,MM,1579998169,63,22.57,95.7,11.09,2.52
1321,1298911,Pyu,20,MM,1579998813,61,18.48,96.43,10.94,2.37
1621,1337607,Kudahuvadhoo,100,MV,1579999163,79,2.67,72.89,27.34,6.28
1274,1337610,Thinadhoo,100,MV,1579998759,82,0.53,72.93,27.79,6.71
654,1337613,Kulhudhuffushi,100,MV,1579998143,66,6.62,73.07,28.02,2.88
703,1337619,Ugoofaaru,100,MV,1579998149,68,5.67,73.0,27.9,2.94
9,1486321,Yar-Sale,86,RU,1579997992,99,66.83,70.83,-20.22,2.39
212,1488903,Turukhansk,93,RU,1579997922,94,65.82,87.98,-17.64,0.96
1024,1489209,Troitskoye,100,RU,1579998198,89,52.98,84.68,-6.28,3.54
1548,1489656,Teya,90,RU,1579999078,82,60.38,92.63,-9.93,6.36
1376,1490256,Talnakh,75,RU,1579998877,84,69.49,88.4,-17.0,4.0
10,1490364,Tabory,100,RU,1579998065,95,58.52,64.55,-13.73,2.84
1389,1492607,Severnoye,100,RU,1579998892,94,56.35,78.36,-15.81,4.33
1108,1495626,Pangody,83,RU,1579998212,98,65.85,74.49,-19.18,1.45
480,1500990,Kytmanovo,100,RU,1579998202,96,53.46,85.45,-5.42,2.81
1378,1501118,Kuzedeyevo,100,RU,1579998880,95,53.33,87.2,-5.45,2.77
616,1503037,Kodinsk,100,RU,1579998138,81,58.69,99.18,-5.98,6.28
739,1505579,Inta,87,RU,1579998153,99,66.03,60.17,-21.82,0.15
44,1507390,Dikson,100,RU,1579998137,96,73.51,80.55,-22.12,3.16
1542,1508260,Novobirilyussy,97,RU,1579999071,95,56.95,90.67,-6.76,2.51
346,1509844,Boguchany,62,RU,1579998181,85,58.38,97.45,-6.81,5.14
1664,1513491,Yangi Marg`ilon,75,UZ,1579998977,86,40.43,71.72,3.0,2.1
1279,1515029,Ulaangom,99,MN,1579998765,90,49.98,92.07,-21.42,1.26
464,1516048,Khovd,100,MN,1579997779,54,48.01,91.64,-12.97,1.01
1536,1519928,Kostanay,90,KZ,1579999064,92,53.17,63.58,-5.0,10.0
1394,1523662,Qashyr,35,KZ,1579998898,86,53.07,76.1,-13.85,6.49
1342,1527497,Kyzyl-Suu,100,KG,1579998838,61,42.34,78.0,-3.74,3.73
949,1529376,Korla,4,CN,1579998045,44,41.76,86.15,-10.41,0.79
1569,1572151,Nha Trang,20,VN,1579999102,94,12.25,109.18,23.0,0.5
1331,1582436,Don Luan,36,VN,1579998826,93,11.53,106.92,20.5,1.0
524,1586443,Ca Mau,83,VN,1579998209,94,9.18,105.15,22.18,1.33
678,1606851,Sai Buri,20,TH,1579998146,100,6.7,101.62,22.0,1.5
1505,1607068,Ranot,83,TH,1579999027,67,7.78,100.32,26.79,2.56
861,1608531,Nakhon Phanom,87,TH,1579998171,97,17.41,104.78,18.11,1.82
633,1621313,Ambulu,80,ID,1579998140,74,-8.35,113.61,28.05,2.34
1484,1627185,Sijunjung,96,ID,1579999003,98,-0.69,100.95,22.11,0.68
1654,1634614,Nabire,82,ID,1579999200,71,-3.37,135.48,29.82,0.35
1410,1635815,Maumere,28,ID,1579998917,73,-8.62,122.21,27.65,0.84
1678,1636308,Manokwari,100,ID,1579999228,70,-0.87,134.08,26.18,1.26
1188,1636426,Manggar,47,ID,1579998139,78,-2.88,108.27,27.73,3.97
870,1637001,Biak,27,ID,1579998172,78,-0.91,122.88,27.39,1.7
837,1638775,Payo,94,ID,1579998167,94,-3.75,103.64,20.62,0.59
501,1640972,Katobu,86,ID,1579998205,77,-4.94,122.53,28.44,0.65
508,1643837,Gorontalo,9,ID,1579998206,83,0.54,123.06,26.27,1.29
320,1644932,Ende,66,ID,1579998174,67,-8.84,121.66,29.01,0.61
130,1649150,Bengkulu,88,ID,1579997993,89,-3.8,102.27,23.88,1.09
243,1650232,Banjar,20,ID,1579998162,83,-8.19,114.97,29.0,1.5
73,1651810,Airai,100,TL,1579998028,76,-8.93,125.41,24.63,0.46
576,1714733,Dingle,43,PH,1579998133,84,11.0,122.67,25.91,2.55
961,1718517,Caramay,83,PH,1579998189,75,10.18,119.24,26.4,0.72
707,1722626,Bunguiao,20,PH,1579998149,79,7.1,122.2,29.0,1.0
1022,1729469,Baculin,0,PH,1579998197,76,7.45,126.58,25.77,0.68
166,1734098,Keningau,75,MY,1579998152,79,5.34,116.16,29.0,1.0
120,1735106,George Town,20,MY,1579998139,88,5.41,100.34,26.0,1.35
336,1785738,Yuncheng,100,CN,1579998179,90,35.02,110.99,0.81,1.34
1440,1788852,Xining,0,CN,1579998864,77,36.62,101.77,-12.14,2.06
960,1792916,Tianpeng,40,CN,1579998188,70,30.99,103.94,8.0,2.0
453,1794209,Simao,0,CN,1579998197,77,22.79,100.97,3.94,1.09
871,1795565,Shenzhen,90,CN,1579998173,93,22.55,114.07,16.67,7.0
143,1795632,Shenjiamen,100,CN,1579998149,89,29.96,122.3,12.66,9.35
878,1802204,Luancheng,99,CN,1579998173,92,37.88,114.65,-6.0,1.0
827,1805884,Jiehu,100,CN,1579998165,53,35.54,118.45,1.03,5.23
1051,1817240,Baiyin,40,CN,1579998203,85,36.56,104.21,-3.89,0.54
1244,1817858,Babu,98,CN,1579998146,89,24.42,111.52,6.14,3.26
588,1819729,Hong Kong,75,HK,1579998134,93,22.29,114.16,16.67,12.3
928,1830377,Lumphat,97,KH,1579998184,74,13.49,106.98,20.8,0.38
68,1835848,Seoul,100,KR,1579997998,86,37.57,126.98,0.0,1.0
676,1847947,Shingu,75,JP,1579998008,87,33.73,135.98,9.0,1.0
520,1849831,Toyooka,75,JP,1579998208,93,35.53,134.83,5.0,0.47
394,1855540,Naze,75,JP,1579998188,100,28.37,129.48,21.0,4.1
1184,1856392,Muroto,75,JP,1579998138,87,33.28,134.15,10.0,3.1
360,1857496,Matsusaka,75,JP,1579998183,75,34.57,136.53,8.0,1.0
1487,1863997,Fukuecho,75,JP,1579999006,76,32.69,128.84,11.0,9.3
393,2013176,Yakovlevka,0,RU,1579998188,80,44.42,133.48,-18.26,1.72
145,2013392,Vilyuysk,95,RU,1579998149,96,63.76,121.62,-34.71,4.56
1550,2013639,Verkhnevilyuysk,91,RU,1579998929,96,63.45,120.32,-29.09,3.42
149,2014624,Udachny,85,RU,1579997925,74,66.42,112.4,-33.0,2.0
913,2015306,Tiksi,0,RU,1579998563,67,71.69,128.87,-32.51,2.46
318,2017155,Saskylakh,100,RU,1579997525,92,71.92,114.08,-28.89,7.86
840,2017378,Rudnogorsk,100,RU,1579998167,90,57.26,103.75,-7.34,3.81
487,2018069,Peleduy,99,RU,1579998203,92,59.63,112.74,-7.8,3.4
1029,2019135,Nizhniy Kuranakh,97,RU,1579998199,98,58.84,125.49,-22.48,0.78
728,2019951,Mirny,75,RU,1579998152,83,62.54,113.96,-25.0,2.0
608,2021041,Kyra,8,RU,1579998137,79,49.58,111.98,-19.38,1.3
1140,2021093,Kuytun,41,RU,1579998133,81,54.34,101.5,-11.87,2.43
215,2022572,Khatanga,57,RU,1579998158,91,71.97,102.5,-31.19,1.29
856,2022773,Khandyga,36,RU,1579998170,97,62.67,135.6,-44.93,0.45
604,2027042,Batagay-Alyta,0,RU,1579998131,54,67.8,130.41,-36.88,1.96
327,2027044,Batagay,1,RU,1579998175,94,67.63,134.63,-41.56,1.02
322,2030065,Mandalgovi,0,MN,1579998175,67,45.76,106.27,-11.86,4.91
230,2031964,Darhan,3,MN,1579997901,79,49.49,105.92,-16.01,2.48
353,2033536,Yakeshi,78,CN,1579998182,99,49.28,120.73,-23.35,1.7
1598,2034691,Songjianghe,0,CN,1579999137,78,42.19,127.48,-13.24,1.6
540,2035565,Nong'an,0,CN,1579998211,76,44.38,125.17,-21.0,2.0
99,2036713,Huanren,0,CN,1579998144,77,41.26,125.37,-13.03,1.1
377,2037078,Hailar,43,CN,1579998007,92,49.2,119.7,-20.25,3.26
55,2037485,Erenhot,0,CN,1579997891,78,43.65,111.98,-10.02,3.45
782,2037534,Dunhua,0,CN,1579998159,76,43.37,128.24,-15.22,1.18
561,2038421,Bayan,0,CN,1579998214,91,46.08,127.4,-20.77,1.98
203,2038438,Baoshan,15,CN,1579998157,76,46.56,131.42,-15.43,4.38
1532,2057087,Kupang,75,ID,1579999038,88,-10.17,123.58,27.0,1.0
1682,2062276,Roebourne,3,AU,1579999233,33,-20.78,117.13,33.36,1.12
332,2063036,Port Lincoln,41,AU,1579998179,67,-34.73,135.87,20.33,2.71
419,2063042,Port Hedland,0,AU,1579998191,52,-20.32,118.57,33.0,5.1
1516,2065594,Mount Isa,40,AU,1579999041,94,-20.73,139.5,25.0,2.6
139,2068110,Kununurra,93,AU,1579998149,74,-15.77,128.73,30.0,2.1
1507,2070998,Geraldton,40,AU,1579999029,78,-28.77,114.6,24.0,6.2
720,2071860,Esperance,86,AU,1579998151,68,-33.87,121.9,22.0,3.6
48,2074865,Carnarvon,15,AU,1579997778,78,-24.87,113.63,25.0,6.2
586,2075265,Busselton,19,AU,1579998127,77,-33.65,115.33,20.0,0.89
936,2077895,Alice Springs,0,AU,1579998033,27,-23.7,133.88,31.0,7.7
714,2079582,Alyangula,75,AU,1579998150,70,-13.85,136.42,31.0,4.6
512,2088122,Port Moresby,71,PG,1579998094,71,-9.44,147.18,28.56,2.23
100,2088163,Popondetta,87,PG,1579998144,64,-8.75,148.25,29.15,1.33
1580,2090021,Namatanai,82,PG,1579999114,73,-3.67,152.43,29.26,4.88
1450,2092164,Lorengau,12,PG,1579998930,73,-2.02,147.27,28.42,1.89
547,2094027,Kieta,15,PG,1579998212,67,-6.22,155.63,29.39,2.39
1373,2094342,Kavieng,95,PG,1579998874,71,-2.57,150.8,29.09,4.01
36,2110227,Butaritari,12,KI,1579997779,72,3.07,172.79,29.46,4.72
783,2112309,Katsuura,75,JP,1579998159,93,35.13,140.3,4.44,3.6
1307,2112802,Hasaki,75,JP,1579998797,100,35.73,140.83,4.0,2.1
1363,2120591,Tilichiki,100,RU,1579998784,84,60.47,166.1,-3.61,8.07
1185,2120612,Tigil,100,RU,1579998139,80,57.8,158.67,-2.59,9.56
51,2121385,Severo-Kuril'sk,100,RU,1579998008,92,50.68,156.12,-7.38,19.44
1407,2122090,Pevek,100,RU,1579998914,96,69.7,170.31,-25.08,0.8
1559,2122493,Omsukchan,100,RU,1579999090,100,62.53,155.8,-34.72,4.22
1111,2122605,Okhotsk,71,RU,1579998212,71,59.38,143.3,-28.6,6.63
1078,2123278,Mil'kovo,100,RU,1579998208,95,54.72,158.62,-8.28,1.45
260,2123628,Magadan,100,RU,1579997877,80,59.57,150.8,-18.64,7.94
57,2123814,Leningradskiy,97,RU,1579998138,95,69.38,178.42,-24.67,1.88
710,2125693,Evensk,100,RU,1579998150,84,61.95,159.23,-9.86,8.11
894,2126123,Chokurdakh,85,RU,1579997913,82,70.63,147.92,-32.36,1.9
1293,2126199,Cherskiy,100,RU,1579998781,95,68.75,161.3,-29.38,1.02
741,2126710,Beringovskiy,100,RU,1579998154,84,63.05,179.32,-9.55,3.51
1010,2127878,Mutsu,20,JP,1579998196,58,41.29,141.22,-2.0,1.0
749,2128975,Nemuro,20,JP,1579998155,52,43.32,145.57,-9.0,1.0
342,2132606,Samarai,67,PG,1579998180,58,-10.62,150.67,30.8,1.17
1276,2136825,Isangel,75,VU,1579998761,70,-19.55,169.27,30.0,4.1
970,2137773,Vao,66,NC,1579998190,77,-22.67,167.48,25.63,7.17
754,2138555,Poum,89,NC,1579998155,80,-20.23,164.02,26.61,8.86
1014,2151955,Redcliffe,75,AU,1579998197,62,-27.23,153.1,30.0,4.6
717,2155415,New Norfolk,40,AU,1579998151,60,-42.78,147.06,24.44,3.6
1525,2156643,Mount Gambier,90,AU,1579999051,93,-37.83,140.77,16.0,6.7
1494,2159220,Mackay,75,AU,1579998979,94,-21.15,149.2,25.0,3.1
473,2160413,Leeton,0,AU,1579998201,23,-34.57,146.4,30.56,4.1
1144,2163355,Hobart,75,AU,1579997988,72,-42.88,147.33,23.33,3.6
280,2171099,Codrington,76,AU,1579998168,89,-38.27,141.97,16.87,6.64
696,2179670,Wanganui,79,NZ,1579998148,62,-39.93,175.05,25.56,8.05
241,2180815,Tuatapere,78,NZ,1579997779,47,-46.13,167.68,22.41,1.55
138,2181625,Te Anau,90,NZ,1579997865,80,-45.42,167.72,17.04,1.94
690,2189343,Kaeo,56,NZ,1579997924,52,-35.1,173.78,27.78,0.89
1079,2191562,Dunedin,49,NZ,1579998175,69,-45.87,170.5,19.44,8.5
1133,2192362,Christchurch,52,NZ,1579997877,60,-43.53,172.63,27.22,1.5
1008,2194098,Ahipara,59,NZ,1579998155,80,-35.17,173.17,20.49,4.7
449,2206357,Opunake,57,NZ,1579998196,74,-39.46,173.86,23.33,2.24
175,2206874,Waipawa,18,NZ,1579997906,64,-41.41,175.52,24.0,9.3
82,2206939,Bluff,46,NZ,1579997776,51,-46.6,168.33,21.14,2.6
566,2208248,Kaitangata,66,NZ,1579998130,69,-46.28,169.85,19.44,4.72
966,2214432,Nalut,100,LY,1579998189,15,30.33,10.85,16.23,3.34
1423,2219235,Ubari,74,LY,1579998932,19,26.59,12.78,14.69,4.1
80,2236053,Abong Mbang,45,CM,1579998141,26,3.98,13.18,16.32,1.22
1600,2236967,Soyo,100,AO,1579999139,88,-6.13,12.37,26.53,4.21
1357,2240449,Luanda,40,AO,1579998785,78,-8.84,13.23,27.0,1.5
102,2253354,Dakar,46,SN,1579997534,64,14.69,-17.44,23.0,8.7
75,2264557,Ponta do Sol,20,PT,1579998141,67,32.67,-17.1,16.0,2.6
1632,2274275,Robertsport,0,LR,1579999175,83,6.75,-11.37,27.29,3.52
1099,2276492,Harper,62,LR,1579998211,96,4.38,-7.72,25.13,0.62
94,2277060,Gbarnga,0,LR,1579998143,89,7.0,-9.47,20.26,0.87
305,2291136,Bondoukou,1,CI,1579998172,11,8.03,-2.8,22.09,1.16
1617,2328925,Igede,0,NG,1579999158,13,10.05,5.94,20.59,2.27
1223,2331447,Maiduguri,4,NG,1579998143,44,11.85,13.16,16.49,4.47
1005,2377450,Nouakchott,87,MR,1579997984,44,18.09,-15.98,25.0,5.1
468,2377457,Nouadhibou,100,MR,1579998016,68,20.93,-17.03,18.0,8.7
1449,2381334,Atar,87,MR,1579998961,23,20.52,-13.05,22.62,4.43
1202,2392087,Porto-Novo,45,BJ,1579998141,57,6.5,2.6,24.62,0.6
1065,2396853,Omboue,14,GA,1579998205,93,-1.57,9.26,24.59,1.1
535,2399371,Makokou,80,GA,1579998210,67,0.57,12.86,21.77,0.98
1677,2404036,Seidu,0,SL,1579999227,17,9.02,-10.6,20.69,0.59
1355,2428231,Massaguet,0,TD,1579998853,18,12.48,15.44,17.0,4.1
479,2431736,Goundi,0,TD,1579998202,14,9.36,17.37,17.64,1.87
261,2434584,Bousso,2,TD,1579998165,14,10.48,16.71,17.54,3.48
1430,2447513,Arlit,16,NE,1579998940,10,18.74,7.39,19.44,3.84
951,2450173,Taoudenni,44,ML,1579998187,18,22.68,-3.98,22.12,3.21
375,2455290,Kidal,97,ML,1579998185,9,18.44,1.41,22.95,4.45
1534,2457161,Gao,54,ML,1579999062,9,16.64,1.64,22.2,4.81
531,2460954,Araouane,100,ML,1579998210,9,18.9,-3.53,24.42,2.25
475,2514651,Los Llanos de Aridane,75,ES,1579998148,59,28.66,-17.92,17.0,2.6
183,2521582,Arona,40,ES,1579998154,55,28.1,-16.68,17.0,3.1
805,2542997,Marrakesh,20,MA,1579998162,87,31.63,-8.01,9.0,1.0
679,2598243,Soubre,10,CI,1579998146,96,5.79,-6.61,22.77,0.94
1629,2610343,Vestmanna,100,FO,1579999172,93,62.16,-7.17,7.0,4.6
1652,2618795,Klaksvik,100,FO,1579999198,93,62.23,-6.59,7.0,4.6
833,2629833,Husavik,90,IS,1579998166,92,66.04,-17.34,-1.0,3.6
1093,2630299,Hofn,87,IS,1579998210,91,64.25,-15.21,2.58,2.45
382,2635981,Thornhill,75,GB,1579998049,75,55.23,-3.77,8.0,7.2
1023,2639912,Preston,90,GB,1579997958,93,53.77,-2.72,7.78,2.1
1157,2640006,Portree,100,GB,1579998135,77,57.41,-6.19,8.33,13.86
1456,2640377,Penzance,78,GB,1579998970,81,50.12,-5.54,10.0,7.7
667,2641434,Northam,93,GB,1579998144,94,51.03,-4.22,8.33,2.24
197,2643044,Margate,90,GB,1579998083,100,51.38,1.39,7.22,3.6
446,2644122,Llandrindod Wells,92,GB,1579998196,96,52.24,-3.38,7.22,2.58
1106,2654970,Brae,100,GB,1579998212,87,60.4,-1.35,8.0,8.2
952,2685750,OEstersund,100,SE,1579998187,69,63.18,14.64,3.33,6.2
1021,2692613,Mariestad,97,SE,1579998197,93,58.71,13.82,6.0,6.2
108,2729907,Longyearbyen,0,SJ,1579998144,59,78.22,15.64,-18.0,2.6
999,2738381,Lata,20,PT,1579998574,100,40.16,-8.33,10.0,2.1
849,2768811,Pinkafeld,75,AT,1579998169,100,47.37,16.12,-1.67,0.5
1039,2980080,Saint-Francois,86,FR,1579998201,90,46.42,3.91,5.56,1.5
852,3131178,Strai,100,NO,1579998169,93,58.2,7.9,6.67,3.6
429,3132644,Varhaug,90,NO,1579998193,100,58.61,5.65,6.67,5.1
1318,3141667,Roald,100,NO,1579998810,93,62.58,6.13,8.33,10.8
402,3163146,Andenes,21,NO,1579998189,62,69.31,16.12,-3.89,10.3
817,3175096,Laas,20,IT,1579998164,85,46.62,10.7,1.11,0.84
1643,3177837,Provincia di Cremona,75,IT,1579999188,86,45.23,9.93,6.11,1.5
1057,3179347,Cattolica,80,IT,1579998204,93,43.96,12.74,6.67,1.5
198,3347019,Mossamedes,7,AO,1579998020,73,-15.2,12.15,23.86,4.94
272,3351014,Camacupa,100,AO,1579998167,97,-12.02,17.48,17.98,1.49
772,3351663,Benguela,100,AO,1579998157,76,-12.58,13.41,25.36,1.35
1428,3355672,Luderitz,0,NA,1579998938,82,-26.65,15.16,20.0,4.6
862,3356832,Henties Bay,0,NA,1579998171,96,-22.12,14.28,17.78,1.99
321,3359736,Vredendal,82,ZA,1579998175,91,-31.67,18.5,16.53,4.88
21,3361934,Saldanha,29,ZA,1579998134,82,-33.01,17.94,17.0,1.5
571,3366880,Hermanus,46,ZA,1579997988,88,-34.42,19.23,16.67,3.58
609,3369157,Cape Town,75,ZA,1579998395,88,-33.93,18.42,17.78,5.1
1333,3372472,Vila Franca do Campo,40,PT,1579998828,87,37.72,-25.43,14.0,2.1
830,3372707,Ribeira Grande,100,PT,1579998143,73,38.52,-28.7,12.62,2.32
1660,3372760,Praia da Vitoria,40,PT,1579999207,82,38.73,-27.07,13.0,2.34
262,3372783,Ponta Delgada,40,PT,1579998165,87,37.73,-25.67,14.0,2.1
648,3374083,Bathsheba,75,BB,1579997897,78,13.22,-59.52,26.0,3.1
600,3374210,Sao Filipe,33,CV,1579998401,61,14.9,-24.5,23.51,7.05
1182,3374235,Sal Rei,90,CV,1579998138,88,16.18,-22.92,21.0,6.2
146,3374333,Praia,40,CV,1579998150,47,14.92,-23.51,25.0,7.2
651,3380290,Sinnamary,59,GF,1579998142,84,5.38,-52.95,26.54,9.2
362,3381428,Iracoubo,59,GF,1579998183,84,5.48,-53.2,26.54,9.2
668,3381538,Grand-Santi,70,GF,1579998144,97,4.25,-54.38,23.0,1.99
47,3382160,Cayenne,75,GF,1579998137,94,4.93,-52.33,24.0,2.1
1192,3386177,Trairi,100,BR,1579998058,92,-3.28,-39.27,24.75,1.35
1439,3386213,Touros,75,BR,1579998950,83,-5.2,-35.46,28.0,2.6
694,3387204,Soure,99,BR,1579998148,91,-0.72,-48.52,25.76,2.65
591,3388760,Sao Geraldo do Araguaia,100,BR,1579998135,94,-6.4,-48.55,24.56,0.31
1243,3389822,Salinopolis,98,BR,1579998146,82,-0.61,-47.36,28.03,7.48
1299,3395042,Mazagao,75,BR,1579998788,94,-0.12,-51.29,29.0,2.6
1072,3395062,Maues,100,BR,1579998206,92,-3.38,-57.72,24.76,2.34
762,3395981,Maceio,75,BR,1579997791,88,-9.67,-35.74,27.0,3.1
448,3397763,Jacareacanga,100,BR,1579998196,97,-6.22,-57.75,23.81,1.06
777,3401148,Cururupu,100,BR,1579998045,97,-1.83,-44.87,24.38,1.54
1530,3401845,Conceicao do Araguaia,100,BR,1579998766,93,-8.26,-49.26,24.94,1.54
193,3402648,Carutapera,100,BR,1579998155,80,-1.2,-46.02,27.99,6.11
1033,3403395,Candido Mendes,100,BR,1579998200,95,-1.45,-45.72,24.85,1.66
1366,3404558,Cabedelo,75,BR,1579998866,83,-6.98,-34.83,28.0,2.6
295,3405954,Baturite,98,BR,1579998171,83,-4.33,-38.88,24.95,1.91
1608,3406318,Barra do Corda,98,BR,1579999148,91,-5.5,-45.25,25.5,0.82
1473,3412093,Vestmannaeyjar,70,IS,1579998990,65,63.44,-20.27,3.95,6.88
695,3414079,Olafsvik,99,IS,1579997915,79,64.89,-23.71,1.05,3.48
672,3416888,Grindavik,90,IS,1579998145,86,63.84,-22.43,1.0,4.6
692,3418910,Upernavik,78,GL,1579998147,95,72.79,-56.15,-25.46,3.06
764,3421193,Paamiut,93,GL,1579998156,64,61.99,-49.67,-7.74,9.71
38,3421719,Narsaq,92,GL,1579998006,67,60.92,-46.05,-7.0,2.1
392,3421765,Nanortalik,100,GL,1579998176,75,60.14,-45.24,-4.98,5.93
603,3421982,Maniitsoq,100,GL,1579997930,88,65.42,-52.9,-10.27,3.65
839,3423146,Ilulissat,96,GL,1579998167,46,69.22,-51.1,-13.0,6.7
26,3424607,Tasiilaq,100,GL,1579997778,63,65.61,-37.64,-1.0,11.3
1197,3430863,Mar del Plata,0,AR,1579998007,45,-38.0,-57.56,20.0,6.2
455,3437056,San Lorenzo,0,PY,1579998197,57,-25.33,-57.53,27.0,1.47
278,3443061,Chui,24,UY,1579998167,76,-33.7,-53.46,19.95,3.29
1564,3445026,Vila Velha,75,BR,1579999062,94,-20.33,-40.29,22.0,2.1
1334,3451263,Rio Bananal,100,BR,1579998829,92,-19.27,-40.33,23.27,0.71
1417,3453837,Buriti,11,BR,1579998925,82,-22.93,-45.39,21.67,1.0
463,3454005,Piacabucu,82,BR,1579998199,85,-10.41,-36.43,27.16,4.59
1063,3457147,Mineiros,80,BR,1579998205,89,-17.57,-52.55,21.59,0.7
339,3460148,Januaria,91,BR,1579998180,96,-15.48,-44.37,21.31,2.24
1168,3464974,Curitibanos,0,BR,1579998136,66,-27.28,-50.58,15.31,0.78
266,3466165,Cidreira,60,BR,1579998026,73,-30.18,-50.21,23.76,8.38
1193,3466704,Castro,9,BR,1579998139,72,-24.79,-50.01,18.72,1.51
1254,3467078,Carai,91,BR,1579998147,95,-17.19,-41.69,18.49,1.91
1663,3471196,Bage,20,BR,1579999211,94,-31.33,-54.11,21.0,8.2
765,3471451,Arraial do Cabo,0,BR,1579998157,83,-22.97,-42.03,24.33,4.2
977,3471551,Arenapolis,92,BR,1579998191,75,-14.45,-56.85,24.95,1.2
914,3472048,Antonina,20,BR,1579998181,82,-25.43,-48.71,25.56,2.6
510,3473183,Acucena,100,BR,1579998206,97,-19.07,-42.55,20.54,1.0
251,3513563,Kralendijk,25,BQ,1579998163,83,12.15,-68.27,25.0,2.1
329,3520994,Puerto Escondido,20,MX,1579998178,74,15.85,-97.07,28.0,1.29
245,3521972,Panaba,3,MX,1579998038,79,21.28,-88.27,21.96,4.53
1684,3527113,Hidalgotitlan,5,MX,1579999187,78,17.78,-94.63,25.0,2.69
750,3531673,Cancun,20,MX,1579997877,69,21.17,-86.85,25.0,4.6
1509,3558315,Gibara,20,CU,1579999031,78,21.11,-76.13,22.0,3.6
737,3571913,Marsh Harbour,1,BS,1579998153,70,26.54,-77.06,22.74,2.5
387,3576994,Cockburn Town,0,TC,1579998187,71,21.46,-71.14,24.47,4.15
1467,3577430,Road Town,1,VG,1579998864,78,18.42,-64.62,25.0,2.1
649,3615730,Waspan,40,NI,1579998142,88,14.74,-83.97,25.0,3.1
1630,3620266,Corn Island,14,NI,1579999173,74,12.17,-83.04,26.03,6.4
98,3628473,San Cristobal,40,VE,1579998144,69,7.77,-72.22,27.0,1.0
1060,3641351,El Tigre,98,VE,1579998205,52,8.89,-64.25,27.78,4.33
498,3649408,Altagracia de Orituco,100,VE,1579998044,92,9.86,-66.38,19.22,1.66
1186,3652764,Puerto Ayora,75,EC,1579998527,78,-0.74,-90.35,26.0,3.6
1216,3653523,Palora,75,EC,1579998142,94,-1.7,-77.93,20.0,2.1
496,3654536,Machachi,90,EC,1579998204,76,-0.5,-78.57,16.0,1.0
791,3658666,Cuenca,75,EC,1579998085,100,-2.88,-78.98,13.0,1.82
1588,3662489,Santa Isabel do Rio Negro,100,BR,1579999123,92,-0.41,-65.02,25.23,1.15
954,3665202,Aripuana,100,BR,1579998187,96,-9.17,-60.63,24.54,0.49
385,3666409,Uribia,38,CO,1579998132,74,11.71,-72.27,25.18,3.62
1557,3670218,San Andres,40,CO,1579999088,69,12.58,-81.7,27.0,4.6
450,3687238,Cartagena,40,CO,1579998151,74,10.4,-75.51,28.0,5.1
1245,3691712,Soritor,100,PE,1579998146,96,-6.14,-77.1,20.18,0.64
1549,3693584,Pimentel,50,PE,1579998970,29,-6.84,-79.93,19.0,7.7
976,3694112,Paita,46,PE,1579998191,100,-5.09,-81.11,17.0,6.2
1489,3698359,Chicama,75,PE,1579998955,94,-7.84,-79.15,23.0,4.6
122,3731095,Aquin,16,HT,1579998147,72,18.28,-73.4,22.76,2.33
525,3827693,La Macarena,57,CO,1579998209,67,2.18,-73.78,26.62,1.41
1180,3831208,Qaanaaq,0,GL,1579998138,44,77.48,-69.36,-24.73,2.29
579,3833367,Ushuaia,75,AR,1579998133,66,-54.8,-68.3,10.0,10.3
1658,3833859,Tres Arroyos,2,AR,1579999181,53,-38.37,-60.28,16.39,3.77
1675,3836669,San Rafael,0,AR,1579999224,20,-34.62,-68.33,29.17,3.58
344,3839307,Rawson,0,AR,1579998180,37,-43.3,-65.1,24.52,6.69
943,3839982,Punta Alta,30,AR,1579998186,61,-38.88,-62.07,19.87,7.05
1481,3860443,Comodoro Rivadavia,4,AR,1579998718,27,-45.87,-67.5,26.0,13.4
922,3868633,Vallenar,22,CL,1579998183,76,-28.57,-70.76,18.71,2.73
11,3874787,Punta Arenas,75,CL,1579997987,66,-53.15,-70.92,10.0,8.2
136,3883457,Lebu,0,CL,1579998137,69,-37.62,-73.65,17.82,4.89
1563,3893629,Coquimbo,29,CL,1579999095,88,-29.95,-71.34,18.0,4.6
1116,3893726,Constitucion,0,CL,1579998005,72,-35.33,-72.42,16.73,3.79
294,3899539,Antofagasta,75,CL,1579998171,83,-23.65,-70.4,22.22,2.1
635,3899695,Ancud,100,CL,1579998140,68,-41.87,-73.82,19.0,3.1
959,3902377,Trinidad,20,BO,1579998188,66,-14.83,-64.9,33.0,1.35
265,3903987,Sucre,74,BO,1579998165,56,-19.03,-65.26,12.22,2.28
469,3914839,Huanuni,37,BO,1579998200,37,-18.27,-66.85,13.33,6.78
1278,3932145,Pisco,75,PE,1579998764,83,-13.7,-76.22,24.44,9.8
646,3933024,Paramonga,84,PE,1579998142,86,-10.67,-77.83,22.53,5.2
179,3947956,Ambo,100,PE,1579998154,91,-10.13,-76.2,9.21,1.07
972,3979494,Estacion Coahuila,1,MX,1579998190,23,32.19,-115.0,25.0,1.59
213,3984997,San Quintin,45,MX,1579997776,64,30.48,-115.95,17.65,2.54
859,3985168,San Patricio,75,MX,1579998008,83,19.22,-104.7,27.0,5.1
590,3985710,Cabo San Lucas,40,MX,1579998131,73,22.89,-109.91,22.78,2.1
763,3988392,Rosarito,1,MX,1579998156,72,32.33,-117.03,21.0,1.5
1322,3991347,Puerto Penasco,0,MX,1579998814,83,31.32,-113.53,17.78,1.34
597,3994535,Ocampo,100,MX,1579998135,58,21.65,-101.5,14.64,5.71
1161,3996647,Mapimi,90,MX,1579998136,48,25.82,-103.85,19.0,4.1
1405,4004293,Ixtapa,90,MX,1579998911,94,20.7,-105.2,22.0,3.1
61,4020109,Atuona,62,PF,1579998139,78,-9.8,-139.03,27.1,6.8
170,4021858,Guerrero Negro,0,MX,1579998009,53,27.98,-114.06,19.58,4.61
644,4030556,Rikitea,18,PF,1579998529,77,-23.12,-134.97,26.25,6.27
1348,4031574,Provideniya,0,RU,1579998329,68,64.38,-173.3,-20.36,1.64
677,4031637,Lavrentiya,0,RU,1579998265,76,65.58,-171.0,-25.11,1.01
650,4032243,Vaini,90,TO,1579998530,88,-21.2,-175.2,27.0,6.2
233,4033077,Vaitape,22,PF,1579998161,76,-16.52,-151.75,28.03,5.01
227,4033557,Tautira,20,PF,1579998160,66,-17.73,-149.15,31.0,6.7
675,4034307,Mahina,20,PF,1579998145,66,-17.51,-149.49,31.0,6.7
632,4034551,Faanui,22,PF,1579998006,76,-16.48,-151.75,28.03,5.01
988,4035249,Lufilufi,58,WS,1579998192,83,-13.87,-171.6,27.78,1.34
615,4035715,Avarua,99,CK,1579998138,83,-21.21,-159.78,29.0,5.7
255,4036284,Alofi,95,NU,1579998022,83,-19.06,-169.92,29.0,3.6
1361,4047434,Russell,1,US,1579998860,70,32.35,-85.2,8.89,2.34
820,4165869,New Port Richey,1,US,1579998164,71,28.24,-82.72,14.44,1.5
788,4224413,Statesboro,1,US,1579997862,65,32.45,-81.78,11.0,1.5
863,4255151,Bud,90,US,1579998171,96,39.45,-86.18,0.56,8.7
1603,4362001,Mayo,1,US,1579998985,87,38.89,-76.51,8.33,3.36
1611,4389418,Hannibal,90,US,1579999151,90,39.71,-91.36,1.11,3.32
325,4470244,Havelock,1,US,1579998039,62,34.88,-76.9,12.0,2.6
704,4513583,Hamilton,90,US,1579998091,86,39.18,-84.53,1.67,5.1
1285,4557109,Chambersburg,90,US,1579998596,88,39.94,-77.66,6.11,3.6
1074,4560349,Philadelphia,40,US,1579998089,70,39.95,-75.16,8.0,5.1
799,4576653,Dillon,1,US,1579997930,87,34.42,-79.37,10.0,1.5
1537,4763231,Harrisonburg,1,US,1579998787,74,38.45,-78.87,7.0,3.1
1401,4845585,Westport,90,US,1579998906,100,41.14,-73.36,10.56,6.11
1165,4951594,Southbridge,90,US,1579998136,100,42.08,-72.03,8.33,5.1
1081,4985521,Beecher,90,US,1579998208,98,43.09,-83.69,1.11,1.5
1117,5026416,Fergus Falls,90,US,1579998213,85,46.28,-96.08,-4.0,1.5
384,5044290,Saint Anthony,90,US,1579997993,68,45.02,-93.22,-0.56,2.6
583,5071348,Kearney,1,US,1579998134,86,40.7,-99.08,5.0,3.6
613,5106841,Albany,90,US,1579998412,93,42.6,-73.97,4.44,3.1
1411,5110092,Brewster,90,US,1579998918,93,41.4,-73.62,9.44,1.5
1141,5122534,Jamestown,90,US,1579998133,97,42.1,-79.24,2.22,2.6
1409,5129852,Oneonta,100,US,1579998916,85,42.45,-75.06,2.22,1.6
1084,5134295,Rome,90,US,1579998163,98,43.21,-75.46,1.67,0.85
1229,5147097,Berea,90,US,1579998144,97,41.37,-81.85,1.67,4.1
490,5233053,Yankton,90,US,1579998203,92,42.87,-97.4,-2.0,2.6
596,5282297,Bethel,90,US,1579998522,93,41.37,-73.41,10.0,1.5
1295,5288636,Casa Grande,1,US,1579998783,40,32.88,-111.76,22.22,2.6
1610,5338122,Clovis,75,US,1579999136,59,36.83,-119.7,17.0,1.24
269,5354943,Half Moon Bay,40,US,1579997884,87,37.46,-122.43,18.89,1.79
773,5364271,Laguna,1,US,1579998158,82,38.42,-121.42,16.11,2.1
1261,5367788,Lompoc,1,US,1579998148,82,34.64,-120.46,20.56,5.7
328,5392593,San Ramon,75,US,1579997953,77,37.78,-121.98,18.89,2.6
239,5411479,Alamosa,1,US,1579998161,90,37.47,-105.87,0.56,2.1
836,5546220,Saint George,1,US,1579998167,42,37.1,-113.58,16.67,0.08
1379,5554072,Juneau,90,US,1579998780,95,58.3,-134.42,0.0,2.6
731,5554428,Ketchikan,90,US,1579998152,87,55.34,-131.65,8.0,8.7
795,5557293,Sitka,90,US,1579998161,81,57.05,-135.33,7.0,8.7
1495,5563839,Fortuna,90,US,1579998860,93,40.6,-124.16,15.56,2.6
1007,5731070,Hermiston,1,US,1579998196,62,45.84,-119.29,13.33,2.6
919,5733351,Jackson,90,US,1579997889,87,42.42,-122.83,11.67,0.94
412,5746545,Portland,75,US,1579998190,71,45.52,-122.68,14.0,1.5
1344,5847411,Kahului,20,US,1579998841,51,20.89,-156.47,29.0,9.3
1282,5848280,Kapaa,40,US,1579998768,74,22.08,-159.32,26.0,4.6
1204,5849297,Kihei,20,US,1579998141,51,20.79,-156.47,29.0,9.3
697,5850511,Makaha,90,US,1579998148,61,21.47,-158.22,27.0,4.6
575,5855927,Hilo,90,US,1579998132,57,19.73,-155.09,27.0,3.1
371,5856516,'Ahuimanu,90,US,1579997931,69,21.44,-157.84,28.0,4.6
585,5861897,Fairbanks,1,US,1579997971,75,64.84,-147.72,-21.67,1.5
24,5864145,Homer,1,US,1579998029,60,59.64,-151.55,-11.0,2.1
834,5866063,Kenai,1,US,1579998167,54,60.55,-151.26,-12.78,5.7
1281,5866583,Kodiak,90,US,1579998767,62,57.79,-152.41,-7.0,7.7
430,5870133,Nome,1,US,1579998193,82,64.5,-165.41,-27.0,3.51
121,5880054,Barrow,1,US,1579997777,67,71.29,-156.79,-33.0,3.6
1531,5882953,Aklavik,90,CA,1579999058,75,68.22,-135.01,-25.0,7.2
1438,5906229,Botwood,20,CA,1579998949,79,49.15,-55.35,-7.0,3.6
1546,5924351,Clyde River,5,CA,1579999075,61,70.47,-68.59,-31.0,2.1
533,5954718,Flin Flon,90,CA,1579998210,85,54.77,-101.86,-8.0,2.6
378,5955902,Fort Nelson,75,CA,1579997991,92,58.81,-122.7,-12.0,1.0
1290,5972291,Havre-Saint-Pierre,90,CA,1579998777,92,50.23,-63.6,-12.0,2.92
77,5975004,High Level,90,CA,1579998141,100,58.52,-117.14,-6.0,2.1
723,5983607,Inuvik,90,CA,1579998151,69,68.35,-133.72,-25.0,6.7
1155,5983720,Iqaluit,5,CA,1579998135,67,63.75,-68.51,-32.78,6.2
319,5990669,Kelvington,100,CA,1579998174,98,52.17,-103.53,0.53,0.48
1298,5991056,Kenora,90,CA,1579998786,92,49.82,-94.43,-6.0,3.1
188,6050066,La Ronge,90,CA,1579998155,85,55.1,-105.28,-5.0,2.6
565,6089245,Norman Wells,40,CA,1579998130,63,65.28,-126.83,-24.0,6.2
937,6096551,Pangnirtung,100,CA,1579998185,99,66.15,-65.71,-38.37,0.7
184,6111862,Port Hardy,75,CA,1579998154,81,50.7,-127.42,9.0,7.2
1385,6137462,Saint-Augustin,36,CA,1579998888,78,51.23,-58.65,-9.38,4.97
101,6141439,Sault Ste. Marie,90,CA,1579997928,100,46.52,-84.33,2.0,2.6
1460,6145563,Shawville,100,CA,1579998974,92,45.6,-76.48,0.56,4.06
567,6165406,Thompson,90,CA,1579998092,92,55.74,-97.86,-9.0,1.65
126,6167817,Torbay,5,CA,1579998015,78,47.67,-52.73,-7.22,7.2
673,6170031,Tuktoyaktuk,90,CA,1579998145,75,69.45,-133.04,-25.0,10.8
1191,6185377,Yellowknife,90,CA,1579998022,85,62.46,-114.35,-12.0,3.6
5,6201424,Mataura,73,NZ,1579997778,61,-46.19,168.86,23.74,0.62
1597,6255012,Flinders,21,AU,1579999077,49,-34.58,150.86,33.89,3.6
1382,6537556,Polignano a Mare,90,IT,1579998884,100,41.0,17.22,12.78,2.1
427,6539309,Sinnai,90,IT,1579998193,100,39.3,9.2,12.0,2.1
1218,6620339,Karratha,0,AU,1579998143,74,-20.74,116.85,29.77,1.26
917,6690296,Saint-Joseph,75,RE,1579997913,78,-21.37,55.62,23.0,3.6
1374,7279741,Vapi,0,IN,1579998875,33,20.37,72.9,19.12,1.62
1055,7601762,Bairiki Village,20,KI,1579998203,74,1.33,172.98,31.0,3.1
1158,8010683,Porto Santo,20,PT,1579998135,77,33.07,-16.34,16.0,4.1
161,8079926,Labuhan,100,ID,1579998151,91,-6.88,112.21,24.43,1.69
